[
  { "terms": ["golders green"], "label": "Golders Green, London, UK", "kind": "neighbourhood", "precision": "high", "lat": 51.5722, "lng": -0.1941 },
  { "terms": ["london"], "label": "London, UK", "kind": "city", "precision": "high", "lat": 51.5074, "lng": -0.1278 },
  { "terms": ["westminster"], "label": "Westminster, London, UK", "kind": "borough", "precision": "high", "lat": 51.4975, "lng": -0.1357 },
  { "terms": ["camden"], "label": "Camden, London, UK", "kind": "borough", "precision": "high", "lat": 51.545, "lng": -0.1628 },
  { "terms": ["islington"], "label": "Islington, London, UK", "kind": "borough", "precision": "high", "lat": 51.538, "lng": -0.1022 },
  { "terms": ["tower hamlets"], "label": "Tower Hamlets, London, UK", "kind": "borough", "precision": "high", "lat": 51.52, "lng": -0.0293 },
  { "terms": ["newham"], "label": "Newham, London, UK", "kind": "borough", "precision": "high", "lat": 51.5255, "lng": 0.0352 },
  { "terms": ["croydon"], "label": "Croydon, London, UK", "kind": "borough", "precision": "high", "lat": 51.3762, "lng": -0.0982 },
  { "terms": ["hounslow"], "label": "Hounslow, London, UK", "kind": "borough", "precision": "high", "lat": 51.4686, "lng": -0.3613 },
  { "terms": ["heathrow"], "label": "Heathrow, London, UK", "kind": "airport_area", "precision": "high", "lat": 51.47, "lng": -0.4543 },
  { "terms": ["gatwick"], "label": "Gatwick, UK", "kind": "airport_area", "precision": "high", "lat": 51.1537, "lng": -0.1821 },
  { "terms": ["luton"], "label": "Luton, UK", "kind": "town", "precision": "high", "lat": 51.8787, "lng": -0.4200 },
  { "terms": ["stansted"], "label": "Stansted, UK", "kind": "airport_area", "precision": "high", "lat": 51.886, "lng": 0.2389 },
  { "terms": ["woolwich"], "label": "Woolwich, London, UK", "kind": "neighbourhood", "precision": "high", "lat": 51.4906, "lng": 0.0693 },
  { "terms": ["enfield"], "label": "Enfield, London, UK", "kind": "borough", "precision": "high", "lat": 51.6522, "lng": -0.0808 },
  { "terms": ["wembley"], "label": "Wembley, London, UK", "kind": "neighbourhood", "precision": "high", "lat": 51.5560, "lng": -0.2795 },
  { "terms": ["redbridge"], "label": "Redbridge, London, UK", "kind": "borough", "precision": "high", "lat": 51.5765, "lng": 0.0455 },
  { "terms": ["primrose hill"], "label": "Primrose Hill, London, UK", "kind": "neighbourhood", "precision": "high", "lat": 51.5390, "lng": -0.1600 },
  { "terms": ["southport"], "label": "Southport, UK", "kind": "town", "precision": "high", "lat": 53.6477, "lng": -3.0056 },

  { "terms": ["birmingham"], "label": "Birmingham, UK", "kind": "city", "precision": "high", "lat": 52.4862, "lng": -1.8904 },
  { "terms": ["manchester"], "label": "Manchester, UK", "kind": "city", "precision": "high", "lat": 53.4808, "lng": -2.2426 },
  { "terms": ["liverpool"], "label": "Liverpool, UK", "kind": "city", "precision": "high", "lat": 53.4084, "lng": -2.9916 },
  { "terms": ["leeds"], "label": "Leeds, UK", "kind": "city", "precision": "high", "lat": 53.8008, "lng": -1.5491 },
  { "terms": ["sheffield"], "label": "Sheffield, UK", "kind": "city", "precision": "high", "lat": 53.3811, "lng": -1.4701 },
  { "terms": ["bristol"], "label": "Bristol, UK", "kind": "city", "precision": "high", "lat": 51.4545, "lng": -2.5879 },
  { "terms": ["newcastle", "newcastle upon tyne"], "label": "Newcastle upon Tyne, UK", "kind": "city", "precision": "high", "lat": 54.9783, "lng": -1.6178 },
  { "terms": ["glasgow"], "label": "Glasgow, UK", "kind": "city", "precision": "high", "lat": 55.8642, "lng": -4.2518 },
  { "terms": ["edinburgh"], "label": "Edinburgh, UK", "kind": "city", "precision": "high", "lat": 55.9533, "lng": -3.1883 },
  { "terms": ["cardiff"], "label": "Cardiff, UK", "kind": "city", "precision": "high", "lat": 51.4816, "lng": -3.1791 },
  { "terms": ["belfast"], "label": "Belfast, UK", "kind": "city", "precision": "high", "lat": 54.5973, "lng": -5.9301 },
  { "terms": ["leicester"], "label": "Leicester, UK", "kind": "city", "precision": "high", "lat": 52.6369, "lng": -1.1398 },
  { "terms": ["nottingham"], "label": "Nottingham, UK", "kind": "city", "precision": "high", "lat": 52.9548, "lng": -1.1581 },
  { "terms": ["southampton"], "label": "Southampton, UK", "kind": "city", "precision": "high", "lat": 50.9097, "lng": -1.4044 },
  { "terms": ["portsmouth"], "label": "Portsmouth, UK", "kind": "city", "precision": "high", "lat": 50.8198, "lng": -1.0880 },
  { "terms": ["brighton"], "label": "Brighton, UK", "kind": "city", "precision": "high", "lat": 50.8225, "lng": -0.1372 },
  { "terms": ["oxford"], "label": "Oxford, UK", "kind": "city", "precision": "high", "lat": 51.7520, "lng": -1.2577 },
  { "terms": ["cambridge"], "label": "Cambridge, UK", "kind": "city", "precision": "high", "lat": 52.2053, "lng": 0.1218 },

  { "terms": ["northumberland"], "label": "Northumberland, UK", "kind": "county", "precision": "medium", "lat": 55.2083, "lng": -2.0784 },
  { "terms": ["west midlands"], "label": "West Midlands, UK", "kind": "region", "precision": "medium", "lat": 52.4862, "lng": -1.8904 },
  { "terms": ["west yorkshire"], "label": "West Yorkshire, UK", "kind": "county", "precision": "medium", "lat": 53.8008, "lng": -1.5491 },
  { "terms": ["south yorkshire"], "label": "South Yorkshire, UK", "kind": "county", "precision": "medium", "lat": 53.3811, "lng": -1.4701 },
  { "terms": ["essex"], "label": "Essex, UK", "kind": "county", "precision": "medium", "lat": 51.7343, "lng": 0.4691 },
  { "terms": ["kent"], "label": "Kent, UK", "kind": "county", "precision": "medium", "lat": 51.2787, "lng": 0.5217 },
  { "terms": ["greater manchester"], "label": "Greater Manchester, UK", "kind": "region", "precision": "medium", "lat": 53.4808, "lng": -2.2426 },

  { "terms": ["united kingdom", "uk", "britain", "great britain", "british"], "label": "United Kingdom", "kind": "country", "precision": "low", "lat": 54.5, "lng": -2.5 },
  { "terms": ["england", "english"], "label": "England, UK", "kind": "country_part", "precision": "low", "lat": 52.3555, "lng": -1.1743 },
  { "terms": ["scotland", "scottish"], "label": "Scotland, UK", "kind": "country_part", "precision": "low", "lat": 56.4907, "lng": -4.2026 },
  { "terms": ["wales", "welsh"], "label": "Wales, UK", "kind": "country_part", "precision": "low", "lat": 52.1307, "lng": -3.7837 },
  { "terms": ["northern ireland", "northern irish"], "label": "Northern Ireland, UK", "kind": "country_part", "precision": "low", "lat": 54.7877, "lng": -6.4923 },

  { "terms": ["paris"], "label": "Paris, France", "kind": "city", "precision": "high", "lat": 48.8566, "lng": 2.3522 },
  { "terms": ["france", "french"], "label": "France", "kind": "country", "precision": "low", "lat": 46.6034, "lng": 1.8883 },
  { "terms": ["brussels"], "label": "Brussels, Belgium", "kind": "city", "precision": "high", "lat": 50.8503, "lng": 4.3517 },
  { "terms": ["belgium", "belgian"], "label": "Belgium", "kind": "country", "precision": "low", "lat": 50.5039, "lng": 4.4699 },
  { "terms": ["amsterdam"], "label": "Amsterdam, Netherlands", "kind": "city", "precision": "high", "lat": 52.3676, "lng": 4.9041 },
  { "terms": ["netherlands", "dutch"], "label": "Netherlands", "kind": "country", "precision": "low", "lat": 52.1326, "lng": 5.2913 },
  { "terms": ["rotterdam"], "label": "Rotterdam, Netherlands", "kind": "city", "precision": "high", "lat": 51.9244, "lng": 4.4777 },
  { "terms": ["the hague", "den haag"], "label": "The Hague, Netherlands", "kind": "city", "precision": "high", "lat": 52.0705, "lng": 4.3007 },

  { "terms": ["berlin"], "label": "Berlin, Germany", "kind": "city", "precision": "high", "lat": 52.52, "lng": 13.405 },
  { "terms": ["germany", "german"], "label": "Germany", "kind": "country", "precision": "low", "lat": 51.1657, "lng": 10.4515 },
  { "terms": ["hamburg"], "label": "Hamburg, Germany", "kind": "city", "precision": "high", "lat": 53.5511, "lng": 9.9937 },
  { "terms": ["munich", "muenchen"], "label": "Munich, Germany", "kind": "city", "precision": "high", "lat": 48.1351, "lng": 11.5820 },
  { "terms": ["frankfurt"], "label": "Frankfurt, Germany", "kind": "city", "precision": "high", "lat": 50.1109, "lng": 8.6821 },

  { "terms": ["madrid"], "label": "Madrid, Spain", "kind": "city", "precision": "high", "lat": 40.4168, "lng": -3.7038 },
  { "terms": ["spain", "spanish"], "label": "Spain", "kind": "country", "precision": "low", "lat": 40.4637, "lng": -3.7492 },
  { "terms": ["barcelona"], "label": "Barcelona, Spain", "kind": "city", "precision": "high", "lat": 41.3851, "lng": 2.1734 },

  { "terms": ["rome"], "label": "Rome, Italy", "kind": "city", "precision": "high", "lat": 41.9028, "lng": 12.4964 },
  { "terms": ["italy", "italian"], "label": "Italy", "kind": "country", "precision": "low", "lat": 41.8719, "lng": 12.5674 },
  { "terms": ["milan"], "label": "Milan, Italy", "kind": "city", "precision": "high", "lat": 45.4642, "lng": 9.1900 },

  { "terms": ["athens"], "label": "Athens, Greece", "kind": "city", "precision": "high", "lat": 37.9838, "lng": 23.7275 },
  { "terms": ["greece", "greek"], "label": "Greece", "kind": "country", "precision": "low", "lat": 39.0742, "lng": 21.8243 },

  { "terms": ["stockholm"], "label": "Stockholm, Sweden", "kind": "city", "precision": "high", "lat": 59.3293, "lng": 18.0686 },
  { "terms": ["sweden", "swedish"], "label": "Sweden", "kind": "country", "precision": "low", "lat": 60.1282, "lng": 18.6435 },

  { "terms": ["copenhagen"], "label": "Copenhagen, Denmark", "kind": "city", "precision": "high", "lat": 55.6761, "lng": 12.5683 },
  { "terms": ["denmark", "danish"], "label": "Denmark", "kind": "country", "precision": "low", "lat": 56.2639, "lng": 9.5018 },

  { "terms": ["dublin"], "label": "Dublin, Ireland", "kind": "city", "precision": "high", "lat": 53.3498, "lng": -6.2603 },
  { "terms": ["ireland", "republic of ireland", "irish"], "label": "Ireland", "kind": "country", "precision": "low", "lat": 53.1424, "lng": -7.6921 },

  { "terms": ["vilnius"], "label": "Vilnius, Lithuania", "kind": "city", "precision": "high", "lat": 54.6872, "lng": 25.2797 },
  { "terms": ["lithuania", "lithuanian"], "label": "Lithuania", "kind": "country", "precision": "low", "lat": 55.1694, "lng": 23.8813 },

  { "terms": ["warsaw"], "label": "Warsaw, Poland", "kind": "city", "precision": "high", "lat": 52.2297, "lng": 21.0122 },
  { "terms": ["poland", "polish"], "label": "Poland", "kind": "country", "precision": "low", "lat": 51.9194, "lng": 19.1451 },

  { "terms": ["kyiv", "kiev"], "label": "Kyiv, Ukraine", "kind": "city", "precision": "high", "lat": 50.4501, "lng": 30.5234 },
  { "terms": ["ukraine", "ukrainian"], "label": "Ukraine", "kind": "country", "precision": "low", "lat": 48.3794, "lng": 31.1656 },

  { "terms": ["vienna"], "label": "Vienna, Austria", "kind": "city", "precision": "high", "lat": 48.2082, "lng": 16.3738 },
  { "terms": ["austria", "austrian"], "label": "Austria", "kind": "country", "precision": "low", "lat": 47.5162, "lng": 14.5501 },

  { "terms": ["zurich"], "label": "Zurich, Switzerland", "kind": "city", "precision": "high", "lat": 47.3769, "lng": 8.5417 },
  { "terms": ["geneva"], "label": "Geneva, Switzerland", "kind": "city", "precision": "high", "lat": 46.2044, "lng": 6.1432 },
  { "terms": ["switzerland", "swiss"], "label": "Switzerland", "kind": "country", "precision": "low", "lat": 46.8182, "lng": 8.2275 },

  { "terms": ["prague"], "label": "Prague, Czech Republic", "kind": "city", "precision": "high", "lat": 50.0755, "lng": 14.4378 },
  { "terms": ["czech republic", "czechia", "czech"], "label": "Czech Republic", "kind": "country", "precision": "low", "lat": 49.8175, "lng": 15.4730 },

  { "terms": ["budapest"], "label": "Budapest, Hungary", "kind": "city", "precision": "high", "lat": 47.4979, "lng": 19.0402 },
  { "terms": ["hungary", "hungarian"], "label": "Hungary", "kind": "country", "precision": "low", "lat": 47.1625, "lng": 19.5033 },

  { "terms": ["bucharest"], "label": "Bucharest, Romania", "kind": "city", "precision": "high", "lat": 44.4268, "lng": 26.1025 },
  { "terms": ["romania", "romanian"], "label": "Romania", "kind": "country", "precision": "low", "lat": 45.9432, "lng": 24.9668 },

  { "terms": ["latvia", "latvian"], "label": "Latvia", "kind": "country", "precision": "low", "lat": 56.8796, "lng": 24.6032 },
  { "terms": ["riga"], "label": "Riga, Latvia", "kind": "city", "precision": "high", "lat": 56.9496, "lng": 24.1052 },
  { "terms": ["bulgaria", "bulgarian"], "label": "Bulgaria", "kind": "country", "precision": "low", "lat": 42.7339, "lng": 25.4858 },
  { "terms": ["sofia"], "label": "Sofia, Bulgaria", "kind": "city", "precision": "high", "lat": 42.6977, "lng": 23.3219 },
  { "terms": ["serbia", "serbian"], "label": "Serbia", "kind": "country", "precision": "low", "lat": 44.0165, "lng": 21.0059 },
  { "terms": ["belgrade"], "label": "Belgrade, Serbia", "kind": "city", "precision": "high", "lat": 44.7866, "lng": 20.4489 },
  { "terms": ["croatia", "croatian"], "label": "Croatia", "kind": "country", "precision": "low", "lat": 45.1000, "lng": 15.2000 },
  { "terms": ["estonia", "estonian"], "label": "Estonia", "kind": "country", "precision": "low", "lat": 58.5953, "lng": 25.0136 },
  { "terms": ["finland", "finnish"], "label": "Finland", "kind": "country", "precision": "low", "lat": 61.9241, "lng": 25.7482 },
  { "terms": ["norway", "norwegian"], "label": "Norway", "kind": "country", "precision": "low", "lat": 60.4720, "lng": 8.4689 },
  { "terms": ["portugal", "portuguese"], "label": "Portugal", "kind": "country", "precision": "low", "lat": 39.3999, "lng": -8.2245 },
  { "terms": ["albania", "albanian"], "label": "Albania", "kind": "country", "precision": "low", "lat": 41.1533, "lng": 20.1683 },
  { "terms": ["kosovo", "kosovar"], "label": "Kosovo", "kind": "country", "precision": "low", "lat": 42.6026, "lng": 20.9020 },
  { "terms": ["north macedonia", "macedonia"], "label": "North Macedonia", "kind": "country", "precision": "low", "lat": 41.5122, "lng": 21.7453 },
  { "terms": ["montenegro", "montenegrin"], "label": "Montenegro", "kind": "country", "precision": "low", "lat": 42.7087, "lng": 19.3744 },
  { "terms": ["bosnia", "bosnia and herzegovina", "bosnian"], "label": "Bosnia and Herzegovina", "kind": "country", "precision": "low", "lat": 43.9159, "lng": 17.6791 },
  { "terms": ["slovakia", "slovak"], "label": "Slovakia", "kind": "country", "precision": "low", "lat": 48.6690, "lng": 19.6990 },
  { "terms": ["slovenia", "slovenian"], "label": "Slovenia", "kind": "country", "precision": "low", "lat": 46.1512, "lng": 14.9955 },
  { "terms": ["moldova", "moldovan"], "label": "Moldova", "kind": "country", "precision": "low", "lat": 47.4116, "lng": 28.3699 },
  { "terms": ["luxembourg", "luxembourgish"], "label": "Luxembourg", "kind": "country", "precision": "low", "lat": 49.8153, "lng": 6.1296 },

  { "terms": ["europe", "european"], "label": "Europe", "kind": "continent", "precision": "low", "lat": 50.0, "lng": 10.0 },

  { "terms": ["tehran"], "label": "Tehran, Iran", "kind": "city", "precision": "high", "lat": 35.6892, "lng": 51.3890 },
  { "terms": ["iran", "iranian"], "label": "Iran", "kind": "country", "precision": "low", "lat": 32.4279, "lng": 53.6880 },
  { "terms": ["tel aviv"], "label": "Tel Aviv, Israel", "kind": "city", "precision": "high", "lat": 32.0853, "lng": 34.7818 },
  { "terms": ["jerusalem"], "label": "Jerusalem", "kind": "city", "precision": "high", "lat": 31.7683, "lng": 35.2137 },
  { "terms": ["israel", "israeli"], "label": "Israel", "kind": "country", "precision": "low", "lat": 31.0461, "lng": 34.8516 },
  { "terms": ["beirut"], "label": "Beirut, Lebanon", "kind": "city", "precision": "high", "lat": 33.8938, "lng": 35.5018 },
  { "terms": ["lebanon", "lebanese"], "label": "Lebanon", "kind": "country", "precision": "low", "lat": 33.8547, "lng": 35.8623 },
  { "terms": ["baghdad"], "label": "Baghdad, Iraq", "kind": "city", "precision": "high", "lat": 33.3152, "lng": 44.3661 },
  { "terms": ["iraq", "iraqi"], "label": "Iraq", "kind": "country", "precision": "low", "lat": 33.2232, "lng": 43.6793 },
  { "terms": ["sanaa", "sana'a"], "label": "Sanaa, Yemen", "kind": "city", "precision": "high", "lat": 15.3694, "lng": 44.1910 },
  { "terms": ["yemen", "yemeni"], "label": "Yemen", "kind": "country", "precision": "low", "lat": 15.5527, "lng": 48.5164 },
  { "terms": ["abuja"], "label": "Abuja, Nigeria", "kind": "city", "precision": "high", "lat": 9.0765, "lng": 7.3986 },
  { "terms": ["nigeria", "nigerian"], "label": "Nigeria", "kind": "country", "precision": "low", "lat": 9.0820, "lng": 8.6753 },
  { "terms": ["islamabad"], "label": "Islamabad, Pakistan", "kind": "city", "precision": "high", "lat": 33.6844, "lng": 73.0479 },
  { "terms": ["pakistan", "pakistani"], "label": "Pakistan", "kind": "country", "precision": "low", "lat": 30.3753, "lng": 69.3451 },

  { "terms": ["syria", "syrian"], "label": "Syria", "kind": "country", "precision": "low", "lat": 34.8021, "lng": 38.9968 },
  { "terms": ["damascus"], "label": "Damascus, Syria", "kind": "city", "precision": "high", "lat": 33.5138, "lng": 36.2765 },
  { "terms": ["afghanistan", "afghan"], "label": "Afghanistan", "kind": "country", "precision": "low", "lat": 33.9391, "lng": 67.7100 },
  { "terms": ["kabul"], "label": "Kabul, Afghanistan", "kind": "city", "precision": "high", "lat": 34.5553, "lng": 69.2075 },
  { "terms": ["turkey", "turkiye", "turkish"], "label": "Turkey", "kind": "country", "precision": "low", "lat": 38.9637, "lng": 35.2433 },
  { "terms": ["istanbul"], "label": "Istanbul, Turkey", "kind": "city", "precision": "high", "lat": 41.0082, "lng": 28.9784 },
  { "terms": ["saudi arabia", "saudi"], "label": "Saudi Arabia", "kind": "country", "precision": "low", "lat": 23.8859, "lng": 45.0792 },
  { "terms": ["riyadh"], "label": "Riyadh, Saudi Arabia", "kind": "city", "precision": "high", "lat": 24.7136, "lng": 46.6753 },
  { "terms": ["egypt", "egyptian"], "label": "Egypt", "kind": "country", "precision": "low", "lat": 26.8206, "lng": 30.8025 },
  { "terms": ["cairo"], "label": "Cairo, Egypt", "kind": "city", "precision": "high", "lat": 30.0444, "lng": 31.2357 },
  { "terms": ["jordan", "jordanian"], "label": "Jordan", "kind": "country", "precision": "low", "lat": 30.5852, "lng": 36.2384 },
  { "terms": ["palestine", "palestinian", "gaza"], "label": "Palestine", "kind": "country", "precision": "low", "lat": 31.9522, "lng": 35.2332 },
  { "terms": ["hormuz"], "label": "Strait of Hormuz", "kind": "region", "precision": "medium", "lat": 26.5667, "lng": 56.2500 },
  { "terms": ["libya", "libyan"], "label": "Libya", "kind": "country", "precision": "low", "lat": 26.3351, "lng": 17.2283 },
  { "terms": ["tunisia", "tunisian"], "label": "Tunisia", "kind": "country", "precision": "low", "lat": 33.8869, "lng": 9.5375 },
  { "terms": ["algeria", "algerian"], "label": "Algeria", "kind": "country", "precision": "low", "lat": 28.0339, "lng": 1.6596 },
  { "terms": ["morocco", "moroccan"], "label": "Morocco", "kind": "country", "precision": "low", "lat": 31.7917, "lng": -7.0926 },
  { "terms": ["somalia", "somali"], "label": "Somalia", "kind": "country", "precision": "low", "lat": 5.1521, "lng": 46.1996 },
  { "terms": ["kenya", "kenyan"], "label": "Kenya", "kind": "country", "precision": "low", "lat": -0.0236, "lng": 37.9062 },
  { "terms": ["south africa", "south african"], "label": "South Africa", "kind": "country", "precision": "low", "lat": -30.5595, "lng": 22.9375 },
  { "terms": ["india", "indian"], "label": "India", "kind": "country", "precision": "low", "lat": 20.5937, "lng": 78.9629 },
  { "terms": ["china", "chinese"], "label": "China", "kind": "country", "precision": "low", "lat": 35.8617, "lng": 104.1954 },
  { "terms": ["russia", "russian"], "label": "Russia", "kind": "country", "precision": "low", "lat": 61.5240, "lng": 105.3188 },
  { "terms": ["vietnam", "vietnamese"], "label": "Vietnam", "kind": "country", "precision": "low", "lat": 14.0583, "lng": 108.2772 },
  { "terms": ["philippines", "philippine", "filipino"], "label": "Philippines", "kind": "country", "precision": "low", "lat": 12.8797, "lng": 121.7740 },
  { "terms": ["indonesia", "indonesian"], "label": "Indonesia", "kind": "country", "precision": "low", "lat": -0.7893, "lng": 113.9213 },
  { "terms": ["japan", "japanese"], "label": "Japan", "kind": "country", "precision": "low", "lat": 36.2048, "lng": 138.2529 },
  { "terms": ["south korea", "korean"], "label": "South Korea", "kind": "country", "precision": "low", "lat": 35.9078, "lng": 127.7669 },
  { "terms": ["north korea", "north korean"], "label": "North Korea", "kind": "country", "precision": "low", "lat": 40.3399, "lng": 127.5101 },
  { "terms": ["myanmar", "burma", "burmese"], "label": "Myanmar", "kind": "country", "precision": "low", "lat": 21.9162, "lng": 95.9560 },
  { "terms": ["bangladesh", "bangladeshi"], "label": "Bangladesh", "kind": "country", "precision": "low", "lat": 23.6850, "lng": 90.3563 },
  { "terms": ["sri lanka", "sri lankan"], "label": "Sri Lanka", "kind": "country", "precision": "low", "lat": 7.8731, "lng": 80.7718 },
  { "terms": ["thailand", "thai"], "label": "Thailand", "kind": "country", "precision": "low", "lat": 15.8700, "lng": 100.9925 },
  { "terms": ["malaysia", "malaysian"], "label": "Malaysia", "kind": "country", "precision": "low", "lat": 4.2105, "lng": 101.9758 },
  { "terms": ["bondi"], "label": "Bondi Beach, Australia", "kind": "neighbourhood", "precision": "high", "lat": -33.8915, "lng": 151.2767 },
  { "terms": ["sydney"], "label": "Sydney, Australia", "kind": "city", "precision": "high", "lat": -33.8688, "lng": 151.2093 },
  { "terms": ["mexico", "mexican"], "label": "Mexico", "kind": "country", "precision": "low", "lat": 23.6345, "lng": -102.5528 },
  { "terms": ["brazil", "brazilian"], "label": "Brazil", "kind": "country", "precision": "low", "lat": -14.2350, "lng": -51.9253 },
  { "terms": ["colombia", "colombian"], "label": "Colombia", "kind": "country", "precision": "low", "lat": 4.5709, "lng": -74.2973 },
  { "terms": ["auschwitz"], "label": "Auschwitz, Poland", "kind": "town", "precision": "high", "lat": 50.0343, "lng": 19.1784 },

  { "terms": ["united states", "usa", "u.s.", "u.s.a.", "american"], "label": "United States", "kind": "country", "precision": "low", "lat": 39.8283, "lng": -98.5795 },
  { "terms": ["california"], "label": "California, USA", "kind": "state", "precision": "medium", "lat": 36.7783, "lng": -119.4179 },
  { "terms": ["yosemite"], "label": "Yosemite, California, USA", "kind": "region", "precision": "high", "lat": 37.8651, "lng": -119.5383 },
  { "terms": ["canada", "canadian"], "label": "Canada", "kind": "country", "precision": "low", "lat": 56.1304, "lng": -106.3468 },
  { "terms": ["australia", "australian"], "label": "Australia", "kind": "country", "precision": "low", "lat": -25.2744, "lng": 133.7751 }
]
